[{"name":"Wine - White, Ej","city":"Jiufeng","country":"China","country_code":"CN","rating":1,"state":null,"address":"72 Pennsylvania Way","lat":30.7446878,"lng":120.4910168,"picture":"http://dummyimage.com/511x491.bmp/ff4444/ffffff","description":"Vestibulum ac est lacinia nisi venenatis tristique. Fusce congue, diam id ornare imperdiet, sapien urna pretium nisl, ut volutpat sapien arcu sed augue. Aliquam erat volutpat. In congue. Etiam justo. Etiam pretium iaculis justo. In hac habitasse platea dictumst. Etiam faucibus cursus urna.","owner":"Dale Olander"},
{"name":"Cattail Hearts","city":"Hayil","country":"Saudi Arabia","country_code":"SA","rating":5,"state":null,"address":"41497 Spaight Street","lat":27.7076143,"lng":41.9196471,"picture":"http://dummyimage.com/543x563.png/dddddd/000000","description":"Aliquam non mauris. Morbi non lectus. Aliquam sit amet diam in magna bibendum imperdiet.","owner":"Allan O'Keaveny"},
{"name":"Wine - Piper Heidsieck Brut","city":"Dakingari","country":"Nigeria","country_code":"NG","rating":5,"state":null,"address":"6791 Ilene Circle","lat":11.6497994,"lng":4.0644352,"picture":"http://dummyimage.com/671x335.png/cc0000/ffffff","description":"Maecenas pulvinar lobortis est. Phasellus sit amet erat.","owner":"Michail Malek"},
{"name":"Turkey - Ground. Lean","city":"Gostyń","country":"Poland","country_code":"PL","rating":3,"state":null,"address":"674 Susan Park","lat":51.9034509,"lng":16.955476,"picture":"http://dummyimage.com/569x477.jpg/ff4444/ffffff","description":"Vestibulum rutrum rutrum neque. Aenean auctor gravida sem. Praesent id massa id nisl venenatis lacinia.","owner":"Anallise Gregor"},
{"name":"Syrup - Monin, Swiss Choclate","city":"Pentre","country":"United Kingdom","country_code":"GB","rating":3,"state":"Wales","address":"12 Green Terrace","lat":52.753093,"lng":-2.941678,"picture":"http://dummyimage.com/554x373.bmp/5fa2dd/ffffff","description":"Duis bibendum. Morbi non quam nec dui luctus rutrum. Nulla tellus. In sagittis dui vel nisl. Duis ac nibh. Fusce lacus purus, aliquet at, feugiat non, pretium quis, lectus. Suspendisse potenti. In eleifend quam a odio.","owner":"Budd Swindin"},
{"name":"Cod - Salted, Boneless","city":"Kudymkar","country":"Russia","country_code":"RU","rating":2,"state":null,"address":"9876 Thackeray Street","lat":59.0069977,"lng":54.6643867,"picture":"http://dummyimage.com/734x499.bmp/cc0000/ffffff","description":"Vivamus vestibulum sagittis sapien. Cum sociis natoque penatibus et magnis dis parturient montes, nascetur ridiculus mus. Etiam vel augue.","owner":"Ranee Collings"},
{"name":"Mix - Cocktail Ice Cream","city":"Xinglong","country":"China","country_code":"CN","rating":4,"state":null,"address":"041 Lyons Road","lat":40.417358,"lng":117.500558,"picture":"http://dummyimage.com/458x429.bmp/cc0000/ffffff","description":"Donec ut mauris eget massa tempor convallis. Nulla neque libero, convallis eget, eleifend luctus, ultricies eu, nibh. Quisque id justo sit amet sapien dignissim vestibulum. Vestibulum ante ipsum primis in faucibus orci luctus et ultrices posuere cubilia Curae; Nulla dapibus dolor vel est. Donec odio justo, sollicitudin ut, suscipit a, feugiat et, eros. Vestibulum ac est lacinia nisi venenatis tristique.","owner":"Jerome Addlestone"},
{"name":"Milk - Homo","city":"Újezd","country":"Czech Republic","country_code":"CZ","rating":5,"state":null,"address":"96833 Lawn Drive","lat":49.7647258,"lng":16.9050077,"picture":"http://dummyimage.com/690x399.jpg/dddddd/000000","description":"In quis justo. Maecenas rhoncus aliquam lacus. Morbi quis tortor id nulla ultrices aliquet. Maecenas leo odio, condimentum id, luctus nec, molestie sed, justo. Pellentesque viverra pede ac diam. Cras pellentesque volutpat dui. Maecenas tristique, est et tempus semper, est quam pharetra magna, ac consequat metus sapien ut nunc. Vestibulum ante ipsum primis in faucibus orci luctus et ultrices posuere cubilia Curae; Mauris viverra diam vitae quam. Suspendisse potenti.","owner":"Rivalee Meyrick"},
{"name":"Wine - Vineland Estate Semi - Dry","city":"Pszczew","country":"Poland","country_code":"PL","rating":4,"state":null,"address":"830 Tennessee Center","lat":52.4874765,"lng":15.7562659,"picture":"http://dummyimage.com/532x348.jpg/5fa2dd/ffffff","description":"Proin risus. Praesent lectus. Vestibulum quam sapien, varius ut, blandit non, interdum in, ante. Vestibulum ante ipsum primis in faucibus orci luctus et ultrices posuere cubilia Curae; Duis faucibus accumsan odio. Curabitur convallis. Duis consequat dui nec nisi volutpat eleifend. Donec ut dolor. Morbi vel lectus in quam fringilla rhoncus.","owner":"Geoff Bruckman"},
{"name":"Salmon - Atlantic, No Skin","city":"Gongqiao","country":"China","country_code":"CN","rating":3,"state":null,"address":"93295 Sullivan Place","lat":25.242158,"lng":117.326355,"picture":"http://dummyimage.com/674x391.jpg/dddddd/000000","description":"Vestibulum ante ipsum primis in faucibus orci luctus et ultrices posuere cubilia Curae; Duis faucibus accumsan odio. Curabitur convallis. Duis consequat dui nec nisi volutpat eleifend. Donec ut dolor.","owner":"Gilda Agget"},
{"name":"Pepper - White, Ground","city":"New York City","country":"United States","country_code":"US","rating":4,"state":"New York","address":"65175 Kings Drive","lat":30.1921004,"lng":-81.6975206,"picture":"http://dummyimage.com/526x387.jpg/dddddd/000000","description":"Vestibulum ante ipsum primis in faucibus orci luctus et ultrices posuere cubilia Curae; Nulla dapibus dolor vel est. Donec odio justo, sollicitudin ut, suscipit a, feugiat et, eros. Vestibulum ac est lacinia nisi venenatis tristique. Fusce congue, diam id ornare imperdiet, sapien urna pretium nisl, ut volutpat sapien arcu sed augue. Aliquam erat volutpat. In congue. Etiam justo.","owner":"Cassi Pollicatt"},
{"name":"Chicken - Breast, 5 - 7 Oz","city":"Maroúsi","country":"Greece","country_code":"GR","rating":2,"state":null,"address":"32 Westend Way","lat":38.0549562,"lng":23.807655,"picture":"http://dummyimage.com/627x305.png/5fa2dd/ffffff","description":"In hac habitasse platea dictumst. Morbi vestibulum, velit id pretium iaculis, diam erat fermentum justo, nec condimentum neque sapien placerat ante. Nulla justo.","owner":"Malissa Danilchik"},
{"name":"Corn Syrup","city":"Sanli","country":"China","country_code":"CN","rating":4,"state":null,"address":"61355 Bunting Road","lat":24.84662,"lng":116.746096,"picture":"http://dummyimage.com/654x430.jpg/ff4444/ffffff","description":"Vestibulum ante ipsum primis in faucibus orci luctus et ultrices posuere cubilia Curae; Donec pharetra, magna vestibulum aliquet ultrices, erat tortor sollicitudin mi, sit amet lobortis sapien sapien non mi. Integer ac neque. Duis bibendum. Morbi non quam nec dui luctus rutrum. Nulla tellus. In sagittis dui vel nisl. Duis ac nibh.","owner":"Catlee Manjot"},
{"name":"Bonito Flakes - Toku Katsuo","city":"Hengli","country":"China","country_code":"CN","rating":4,"state":null,"address":"9571 West Pass","lat":31.627447,"lng":121.022581,"picture":"http://dummyimage.com/404x385.bmp/ff4444/ffffff","description":"Nam ultrices, libero non mattis pulvinar, nulla pede ullamcorper augue, a suscipit nulla elit ac nulla. Sed vel enim sit amet nunc viverra dapibus. Nulla suscipit ligula in lacus. Curabitur at ipsum ac tellus semper interdum.","owner":"Carrissa Clashe"},
{"name":"Chips Potato Salt Vinegar 43g","city":"Malekān","country":"Iran","country_code":"IR","rating":2,"state":null,"address":"6 Anthes Place","lat":37.1428788,"lng":46.1042711,"picture":"http://dummyimage.com/712x578.png/dddddd/000000","description":"Duis bibendum. Morbi non quam nec dui luctus rutrum. Nulla tellus. In sagittis dui vel nisl. Duis ac nibh. Fusce lacus purus, aliquet at, feugiat non, pretium quis, lectus. Suspendisse potenti. In eleifend quam a odio. In hac habitasse platea dictumst.","owner":"Madonna Otteridge"},
{"name":"Galliano","city":"Matozinhos","country":"Brazil","country_code":"BR","rating":2,"state":null,"address":"37348 Sherman Circle","lat":-19.5547969,"lng":-44.0871994,"picture":"http://dummyimage.com/475x588.jpg/dddddd/000000","description":"Curabitur convallis. Duis consequat dui nec nisi volutpat eleifend. Donec ut dolor. Morbi vel lectus in quam fringilla rhoncus. Mauris enim leo, rhoncus sed, vestibulum sit amet, cursus id, turpis. Integer aliquet, massa id lobortis convallis, tortor risus dapibus augue, vel accumsan tellus nisi eu orci.","owner":"Prissie Mattheissen"},
{"name":"Southern Comfort","city":"Jiulong","country":"China","country_code":"CN","rating":3,"state":null,"address":"50 Moulton Court","lat":29.000347,"lng":101.507294,"picture":"http://dummyimage.com/506x592.jpg/dddddd/000000","description":"Quisque id justo sit amet sapien dignissim vestibulum. Vestibulum ante ipsum primis in faucibus orci luctus et ultrices posuere cubilia Curae; Nulla dapibus dolor vel est.","owner":"Shirline Caulder"},
{"name":"Long Island Ice Tea","city":"Lugang","country":"China","country_code":"CN","rating":3,"state":null,"address":"7 Glacier Hill Lane","lat":31.2371338,"lng":121.498955,"picture":"http://dummyimage.com/715x586.png/cc0000/ffffff","description":"Nunc purus. Phasellus in felis. Donec semper sapien a libero. Nam dui.","owner":"Thorvald Skidmore"},
{"name":"Pasta - Fusili Tri - Coloured","city":"Puger","country":"Indonesia","country_code":"ID","rating":2,"state":null,"address":"98231 Grover Pass","lat":-8.4779418,"lng":113.3704466,"picture":"http://dummyimage.com/654x387.jpg/ff4444/ffffff","description":"Maecenas ut massa quis augue luctus tincidunt. Nulla mollis molestie lorem. Quisque ut erat. Curabitur gravida nisi at nibh. In hac habitasse platea dictumst. Aliquam augue quam, sollicitudin vitae, consectetuer eget, rutrum at, lorem. Integer tincidunt ante vel ipsum.","owner":"Alia Tschirschky"},
{"name":"Veal - Kidney","city":"Quito","country":"Ecuador","country_code":"EC","rating":1,"state":null,"address":"307 Talmadge Circle","lat":-0.1806532,"lng":-78.4678382,"picture":"http://dummyimage.com/708x566.png/5fa2dd/ffffff","description":"Nulla mollis molestie lorem. Quisque ut erat. Curabitur gravida nisi at nibh. In hac habitasse platea dictumst.","owner":"Garreth Walas"},
{"name":"Chicken - Whole","city":"Senhor da Serra","country":"Portugal","country_code":"PT","rating":3,"state":"Coimbra","address":"579 Vera Terrace","lat":40.152053,"lng":-8.3479579,"picture":"http://dummyimage.com/687x406.bmp/5fa2dd/ffffff","description":"Mauris lacinia sapien quis libero. Nullam sit amet turpis elementum ligula vehicula consequat. Morbi a ipsum. Integer a nibh. In quis justo. Maecenas rhoncus aliquam lacus.","owner":"Nola Caistor"},
{"name":"Wine - White, Concha Y Toro","city":"Dingle","country":"Philippines","country_code":"PH","rating":4,"state":null,"address":"8 Sloan Street","lat":10.9991938,"lng":122.6717828,"picture":"http://dummyimage.com/761x312.bmp/dddddd/000000","description":"Quisque ut erat. Curabitur gravida nisi at nibh. In hac habitasse platea dictumst. Aliquam augue quam, sollicitudin vitae, consectetuer eget, rutrum at, lorem. Integer tincidunt ante vel ipsum. Praesent blandit lacinia erat. Vestibulum sed magna at nunc commodo placerat. Praesent blandit.","owner":"Jeanie Guenther"},
{"name":"Veal - Insides, Grains","city":"Talas","country":"Kyrgyzstan","country_code":"KG","rating":1,"state":null,"address":"53 Cody Road","lat":42.5317628,"lng":72.2304571,"picture":"http://dummyimage.com/789x414.png/dddddd/000000","description":"Proin interdum mauris non ligula pellentesque ultrices. Phasellus id sapien in sapien iaculis congue.","owner":"Berti Brownsmith"},
{"name":"Chinese Foods - Thick Noodles","city":"Petawawa","country":"Canada","country_code":"CA","rating":2,"state":"Ontario","address":"9 Stuart Avenue","lat":45.8903748,"lng":-77.2672051,"picture":"http://dummyimage.com/538x392.bmp/5fa2dd/ffffff","description":"Quisque id justo sit amet sapien dignissim vestibulum. Vestibulum ante ipsum primis in faucibus orci luctus et ultrices posuere cubilia Curae; Nulla dapibus dolor vel est.","owner":"Loutitia Jack"},
{"name":"Wine - Periguita Fonseca","city":"Plewiska","country":"Poland","country_code":"PL","rating":5,"state":null,"address":"50 Dorton Road","lat":52.3620932,"lng":16.8088394,"picture":"http://dummyimage.com/780x563.bmp/cc0000/ffffff","description":"Aliquam non mauris. Morbi non lectus. Aliquam sit amet diam in magna bibendum imperdiet. Nullam orci pede, venenatis non, sodales sed, tincidunt eu, felis.","owner":"Shelagh Klassman"},
{"name":"Veal - Insides, Grains","city":"Zhongpai","country":"China","country_code":"CN","rating":1,"state":null,"address":"37491 Ridgeview Street","lat":37.499972,"lng":105.196902,"picture":"http://dummyimage.com/502x468.bmp/5fa2dd/ffffff","description":"Maecenas tincidunt lacus at velit. Vivamus vel nulla eget eros elementum pellentesque. Quisque porta volutpat erat. Quisque erat eros, viverra eget, congue eget, semper rutrum, nulla. Nunc purus. Phasellus in felis.","owner":"Rodger Gerlack"},
{"name":"Corn Kernels - Frozen","city":"Real","country":"Portugal","country_code":"PT","rating":4,"state":"Aveiro","address":"2594 Manitowish Court","lat":40.9937134,"lng":-8.2760021,"picture":"http://dummyimage.com/785x461.bmp/ff4444/ffffff","description":"Cum sociis natoque penatibus et magnis dis parturient montes, nascetur ridiculus mus. Vivamus vestibulum sagittis sapien. Cum sociis natoque penatibus et magnis dis parturient montes, nascetur ridiculus mus.","owner":"Caprice Stewartson"},
{"name":"Pastry - Baked Scones - Mini","city":"Baise City","country":"China","country_code":"CN","rating":3,"state":null,"address":"2 Mayer Alley","lat":23.902479,"lng":106.618283,"picture":"http://dummyimage.com/770x430.bmp/5fa2dd/ffffff","description":"Quisque id justo sit amet sapien dignissim vestibulum. Vestibulum ante ipsum primis in faucibus orci luctus et ultrices posuere cubilia Curae; Nulla dapibus dolor vel est. Donec odio justo, sollicitudin ut, suscipit a, feugiat et, eros. Vestibulum ac est lacinia nisi venenatis tristique. Fusce congue, diam id ornare imperdiet, sapien urna pretium nisl, ut volutpat sapien arcu sed augue. Aliquam erat volutpat. In congue. Etiam justo. Etiam pretium iaculis justo.","owner":"Naomi Bendtsen"},
{"name":"The Pop Shoppe - Grape","city":"Qŭrghontepa","country":"Uzbekistan","country_code":"UZ","rating":4,"state":null,"address":"25 Melvin Way","lat":"40.73192","lng":"72.76177","picture":"http://dummyimage.com/793x505.jpg/5fa2dd/ffffff","description":"In sagittis dui vel nisl. Duis ac nibh. Fusce lacus purus, aliquet at, feugiat non, pretium quis, lectus. Suspendisse potenti. In eleifend quam a odio. In hac habitasse platea dictumst. Maecenas ut massa quis augue luctus tincidunt.","owner":"Kendra Besemer"},
{"name":"Jolt Cola - Electric Blue","city":"Vrakháti","country":"Greece","country_code":"GR","rating":3,"state":null,"address":"20 Lunder Junction","lat":37.9578061,"lng":22.8039689,"picture":"http://dummyimage.com/579x446.jpg/dddddd/000000","description":"Vestibulum ante ipsum primis in faucibus orci luctus et ultrices posuere cubilia Curae; Donec pharetra, magna vestibulum aliquet ultrices, erat tortor sollicitudin mi, sit amet lobortis sapien sapien non mi. Integer ac neque. Duis bibendum.","owner":"Padriac Rendle"},
{"name":"Pastry - Choclate Baked","city":"Zafarwāl","country":"Pakistan","country_code":"PK","rating":1,"state":null,"address":"72 Erie Center","lat":32.4748152,"lng":74.6769056,"picture":"http://dummyimage.com/684x448.png/5fa2dd/ffffff","description":"Aenean auctor gravida sem. Praesent id massa id nisl venenatis lacinia. Aenean sit amet justo. Morbi ut odio. Cras mi pede, malesuada in, imperdiet et, commodo vulputate, justo. In blandit ultrices enim. Lorem ipsum dolor sit amet, consectetuer adipiscing elit. Proin interdum mauris non ligula pellentesque ultrices. Phasellus id sapien in sapien iaculis congue.","owner":"Hube Hoffner"},
{"name":"Yams","city":"Noebana","country":"Indonesia","country_code":"ID","rating":1,"state":null,"address":"3935 Carioca Avenue","lat":-9.7780409,"lng":124.6524669,"picture":"http://dummyimage.com/767x496.png/5fa2dd/ffffff","description":"In eleifend quam a odio. In hac habitasse platea dictumst. Maecenas ut massa quis augue luctus tincidunt. Nulla mollis molestie lorem. Quisque ut erat.","owner":"Case Yegorovnin"},
{"name":"Beans - Kidney, Canned","city":"Dedza","country":"Malawi","country_code":"MW","rating":2,"state":null,"address":"527 Chive Junction","lat":-14.3816618,"lng":34.3254842,"picture":"http://dummyimage.com/718x527.jpg/ff4444/ffffff","description":"Etiam faucibus cursus urna. Ut tellus.","owner":"Jennee MacHoste"},
{"name":"Pork - Loin, Center Cut","city":"Fujieda","country":"Japan","country_code":"JP","rating":4,"state":null,"address":"85607 Garrison Point","lat":34.8702789,"lng":138.2530386,"picture":"http://dummyimage.com/559x459.png/ff4444/ffffff","description":"Nunc rhoncus dui vel sem.","owner":"Lesya Rockall"},
{"name":"Pork - Ham Hocks - Smoked","city":"Xiapu","country":"China","country_code":"CN","rating":1,"state":null,"address":"7134 Stuart Parkway","lat":26.885704,"lng":120.005147,"picture":"http://dummyimage.com/680x390.bmp/ff4444/ffffff","description":"Vestibulum ante ipsum primis in faucibus orci luctus et ultrices posuere cubilia Curae; Mauris viverra diam vitae quam. Suspendisse potenti. Nullam porttitor lacus at turpis. Donec posuere metus vitae ipsum. Aliquam non mauris. Morbi non lectus. Aliquam sit amet diam in magna bibendum imperdiet. Nullam orci pede, venenatis non, sodales sed, tincidunt eu, felis. Fusce posuere felis sed lacus.","owner":"Anallise Stainbridge"},
{"name":"Veal - Osso Bucco","city":"Malax","country":"Finland","country_code":"FI","rating":5,"state":null,"address":"82 Jay Pass","lat":62.9197246,"lng":21.6323072,"picture":"http://dummyimage.com/608x480.bmp/dddddd/000000","description":"In sagittis dui vel nisl. Duis ac nibh. Fusce lacus purus, aliquet at, feugiat non, pretium quis, lectus. Suspendisse potenti. In eleifend quam a odio. In hac habitasse platea dictumst. Maecenas ut massa quis augue luctus tincidunt. Nulla mollis molestie lorem. Quisque ut erat. Curabitur gravida nisi at nibh.","owner":"Aida Lace"},
{"name":"Water - Aquafina Vitamin","city":"Taranovskoye","country":"Kazakhstan","country_code":"KZ","rating":4,"state":null,"address":"93 Dakota Court","lat":52.8303055,"lng":62.5102237,"picture":"http://dummyimage.com/752x325.bmp/dddddd/000000","description":"Mauris lacinia sapien quis libero. Nullam sit amet turpis elementum ligula vehicula consequat. Morbi a ipsum. Integer a nibh. In quis justo. Maecenas rhoncus aliquam lacus. Morbi quis tortor id nulla ultrices aliquet. Maecenas leo odio, condimentum id, luctus nec, molestie sed, justo.","owner":"Marilee Baumadier"},
{"name":"Cake - Cake Sheet Macaroon","city":"Çepan","country":"Albania","country_code":"AL","rating":3,"state":null,"address":"059 Lighthouse Bay Park","lat":40.4210295,"lng":20.2616268,"picture":"http://dummyimage.com/793x499.bmp/cc0000/ffffff","description":"Vivamus vestibulum sagittis sapien. Cum sociis natoque penatibus et magnis dis parturient montes, nascetur ridiculus mus.","owner":"Neville Pioch"},
{"name":"Soup - Campbells","city":"Černilov","country":"Czech Republic","country_code":"CZ","rating":1,"state":null,"address":"200 Dorton Street","lat":50.2614977,"lng":15.9258038,"picture":"http://dummyimage.com/518x428.png/5fa2dd/ffffff","description":"Duis consequat dui nec nisi volutpat eleifend. Donec ut dolor. Morbi vel lectus in quam fringilla rhoncus. Mauris enim leo, rhoncus sed, vestibulum sit amet, cursus id, turpis. Integer aliquet, massa id lobortis convallis, tortor risus dapibus augue, vel accumsan tellus nisi eu orci. Mauris lacinia sapien quis libero. Nullam sit amet turpis elementum ligula vehicula consequat. Morbi a ipsum.","owner":"Milissent Pescod"},
{"name":"Bread - Crusty Italian Poly","city":"Zárate","country":"Argentina","country_code":"AR","rating":2,"state":null,"address":"47062 3rd Alley","lat":-34.7264519,"lng":-58.6055652,"picture":"http://dummyimage.com/569x309.bmp/5fa2dd/ffffff","description":"Suspendisse ornare consequat lectus.","owner":"Armstrong Malec"},
{"name":"Wine - Red, Antinori Santa","city":"Nîmes","country":"France","country_code":"FR","rating":3,"state":"Languedoc-Roussillon","address":"3 Schlimgen Pass","lat":43.8324929,"lng":4.3662321,"picture":"http://dummyimage.com/698x576.bmp/dddddd/000000","description":"Duis ac nibh. Fusce lacus purus, aliquet at, feugiat non, pretium quis, lectus. Suspendisse potenti.","owner":"Josselyn Radish"},
{"name":"Vermouth - Sweet, Cinzano","city":"Yuta","country":"Palestinian Territory","country_code":"PS","rating":3,"state":null,"address":"04 Carpenter Trail","lat":31.44415,"lng":35.090105,"picture":"http://dummyimage.com/498x433.png/ff4444/ffffff","description":"Duis aliquam convallis nunc.","owner":"Adan Chattoe"},
{"name":"Bread - Raisin","city":"Mokronog","country":"Slovenia","country_code":"SI","rating":5,"state":null,"address":"9618 Hermina Junction","lat":45.9426521,"lng":15.1455616,"picture":"http://dummyimage.com/514x303.bmp/dddddd/000000","description":"Integer ac neque.","owner":"Sheena Sewall"},
{"name":"Wine - Pinot Noir Pond Haddock","city":"Caçapava","country":"Brazil","country_code":"BR","rating":2,"state":null,"address":"671 Linden Court","lat":-23.0939881,"lng":-45.6964547,"picture":"http://dummyimage.com/425x373.png/cc0000/ffffff","description":"Nulla ac enim. In tempor, turpis nec euismod scelerisque, quam turpis adipiscing lorem, vitae mattis nibh ligula nec sem. Duis aliquam convallis nunc.","owner":"Mano Kyle"},
{"name":"Wine - Barossa Valley Estate","city":"Kašperské Hory","country":"Czech Republic","country_code":"CZ","rating":1,"state":null,"address":"90180 Cottonwood Circle","lat":49.1429001,"lng":13.5561642,"picture":"http://dummyimage.com/446x377.png/ff4444/ffffff","description":"Sed ante. Vivamus tortor. Duis mattis egestas metus. Aenean fermentum. Donec ut mauris eget massa tempor convallis. Nulla neque libero, convallis eget, eleifend luctus, ultricies eu, nibh. Quisque id justo sit amet sapien dignissim vestibulum. Vestibulum ante ipsum primis in faucibus orci luctus et ultrices posuere cubilia Curae; Nulla dapibus dolor vel est.","owner":"Sigfrid Dobell"},
{"name":"Cheese - Cheddar With Claret","city":"Shilovo","country":"Russia","country_code":"RU","rating":2,"state":null,"address":"0425 Fulton Point","lat":51.5534631,"lng":39.0929181,"picture":"http://dummyimage.com/544x573.png/5fa2dd/ffffff","description":"Suspendisse accumsan tortor quis turpis. Sed ante. Vivamus tortor. Duis mattis egestas metus. Aenean fermentum. Donec ut mauris eget massa tempor convallis. Nulla neque libero, convallis eget, eleifend luctus, ultricies eu, nibh. Quisque id justo sit amet sapien dignissim vestibulum.","owner":"Vale Piperley"},
{"name":"Cheese - Gouda Smoked","city":"Rancaranji","country":"Indonesia","country_code":"ID","rating":4,"state":null,"address":"7 Fairfield Hill","lat":-6.194154,"lng":105.939567,"picture":"http://dummyimage.com/686x345.jpg/5fa2dd/ffffff","description":"Fusce lacus purus, aliquet at, feugiat non, pretium quis, lectus. Suspendisse potenti. In eleifend quam a odio. In hac habitasse platea dictumst. Maecenas ut massa quis augue luctus tincidunt. Nulla mollis molestie lorem. Quisque ut erat. Curabitur gravida nisi at nibh. In hac habitasse platea dictumst. Aliquam augue quam, sollicitudin vitae, consectetuer eget, rutrum at, lorem.","owner":"Tamar Mitten"},
{"name":"Pepper - Chipotle, Canned","city":"Biao","country":"Philippines","country_code":"PH","rating":3,"state":null,"address":"17 Helena Point","lat":7.1473706,"lng":125.4889603,"picture":"http://dummyimage.com/694x415.png/ff4444/ffffff","description":"Donec odio justo, sollicitudin ut, suscipit a, feugiat et, eros. Vestibulum ac est lacinia nisi venenatis tristique. Fusce congue, diam id ornare imperdiet, sapien urna pretium nisl, ut volutpat sapien arcu sed augue. Aliquam erat volutpat. In congue. Etiam justo.","owner":"Teressa Freschini"},
{"name":"Jam - Apricot","city":"Natakoli","country":"Indonesia","country_code":"ID","rating":3,"state":null,"address":"519 American Ash Circle","lat":-8.7019653,"lng":122.4184108,"picture":"http://dummyimage.com/690x313.png/cc0000/ffffff","description":"Duis bibendum, felis sed interdum venenatis, turpis enim blandit mi, in porttitor pede justo eu massa. Donec dapibus. Duis at velit eu est congue elementum. In hac habitasse platea dictumst. Morbi vestibulum, velit id pretium iaculis, diam erat fermentum justo, nec condimentum neque sapien placerat ante.","owner":"Nolan Tidswell"},
{"name":"Soup - Knorr, Ministrone","city":"Bierawa","country":"Poland","country_code":"PL","rating":3,"state":null,"address":"261 Grover Street","lat":50.282951,"lng":18.2785364,"picture":"http://dummyimage.com/646x509.jpg/5fa2dd/ffffff","description":"Morbi sem mauris, laoreet ut, rhoncus aliquet, pulvinar sed, nisl. Nunc rhoncus dui vel sem. Sed sagittis. Nam congue, risus semper porta volutpat, quam pede lobortis ligula, sit amet eleifend pede libero quis orci.","owner":"Lynette Marousek"}]